% program   : RTKPOST ver.demo5 b31
% inp file  : D:\Data\Fla\Tampa-StPete-area\WGI-larrysanders\2019\0311\GPS\UAS\GP184856.obs
% inp file  : D:\Data\Fla\Tampa-StPete-area\WGI-larrysanders\2019\0311\GPS\FLD7\fld7070o00.19o
% inp file  : D:\Data\Fla\Tampa-StPete-area\WGI-larrysanders\2019\0311\GPS\ZEFR\zefr0700.19n
% inp file  : D:\Data\Fla\Tampa-StPete-area\WGI-larrysanders\2019\0311\GPS\ZEFR\igu20441_18.sp3
% inp file  : D:\Data\Fla\Tampa-StPete-area\WGI-larrysanders\2019\0311\GPS\ZEFR\zefr0700.19g
% obs start : 2019/03/11 18:48:57.5 UTC (week2044 154155.5s)
% obs end   : 2019/03/11 19:03:41.0 UTC (week2044 155039.0s)
% pos mode  : kinematic
% freqs     : L1+L2
% solution  : combined
% elev mask : 15.0 deg
% dynamics  : on
% tidecorr  : off
% ionos opt : broadcast
% tropo opt : saastamoinen
% ephemeris : precise
% navi sys  : gps glonass sbas
% amb res   : continuous
% amb glo   : fix and hold
% val thres : 3.0
% antenna1  :                       ( 0.0000  0.0000  0.0000)
% antenna2  :                       ( 0.0000  0.0000  0.0000)
% ref pos   : 27.969540778  -82.364053375   -12.8370
%
% (lat/lon/height=WGS84/ellipsoidal,Q=1:fix,2:float,3:sbas,4:dgps,5:single,6:ppp,ns=# of satellites)
%  UTC                   latitude(deg) longitude(deg)  height(m)   Q  ns   sdn(m)   sde(m)   sdu(m)  sdne(m)  sdeu(m)  sdun(m) age(s)  ratio
2019/03/11 18:48:57.500   27.894635389  -82.373374106   -21.9057   2   4   0.0889   0.7677   0.8016  -0.2638   0.7826  -0.2678  -0.50    0.0
2019/03/11 18:48:58.000   27.894634476  -82.373357141   -20.2586   2   4   0.1023   1.2347   1.2808  -0.4308   1.2580  -0.4240   0.00    0.0
2019/03/11 18:49:13.000   27.894636891  -82.373362842   -20.8831   1   5   0.0059   0.0073   0.0213   0.0031   0.0092   0.0082   0.00   19.4
2019/03/11 18:49:14.000   27.894636933  -82.373362809   -20.8669   1   5   0.0059   0.0073   0.0214   0.0031   0.0092   0.0082   0.00   19.2
2019/03/11 18:49:15.000   27.894636922  -82.373362820   -20.8769   1   5   0.0059   0.0073   0.0214   0.0031   0.0092   0.0082   0.00   18.9
2019/03/11 18:49:16.000   27.894636941  -82.373362815   -20.8756   1   5   0.0059   0.0073   0.0214   0.0031   0.0092   0.0082   0.00   18.6
2019/03/11 18:49:17.000   27.894636911  -82.373362820   -20.8798   1   5   0.0059   0.0073   0.0214   0.0031   0.0092   0.0082   0.00   18.4
2019/03/11 18:49:18.000   27.894636882  -82.373362779   -20.8801   1   5   0.0059   0.0073   0.0214   0.0031   0.0092   0.0082   0.00   18.1
2019/03/11 18:49:19.000   27.894636903  -82.373362787   -20.8807   1   5   0.0059   0.0073   0.0214   0.0031   0.0092   0.0082   0.00   17.9
2019/03/11 18:49:20.000   27.894636916  -82.373362785   -20.8712   1   5   0.0059   0.0073   0.0214   0.0031   0.0092   0.0082   0.00   17.6
2019/03/11 18:49:21.000   27.894636936  -82.373362779   -20.8680   1   5   0.0059   0.0073   0.0214   0.0031   0.0092   0.0082   0.00   17.3
2019/03/11 18:49:22.000   27.894636880  -82.373362798   -20.8749   1   5   0.0059   0.0073   0.0214   0.0031   0.0092   0.0082   0.00   17.1
2019/03/11 18:49:23.000   27.894636879  -82.373362802   -20.8834   1   5   0.0059   0.0073   0.0214   0.0031   0.0092   0.0082   0.00   16.8
2019/03/11 18:49:24.000   27.894636891  -82.373362799   -20.8831   1   5   0.0059   0.0073   0.0214   0.0031   0.0092   0.0082   0.00   16.5
2019/03/11 18:49:25.000   27.894636894  -82.373362797   -20.8815   1   5   0.0059   0.0073   0.0214   0.0031   0.0092   0.0082   0.00   16.3
2019/03/11 18:49:26.000   27.894636905  -82.373362781   -20.8715   1   5   0.0059   0.0073   0.0214   0.0031   0.0092   0.0082   0.00   16.0
2019/03/11 18:49:27.000   27.894636911  -82.373362811   -20.8764   1   5   0.0059   0.0073   0.0214   0.0031   0.0092   0.0083   0.00   15.8
2019/03/11 18:49:28.000   27.894636888  -82.373362779   -20.8762   1   5   0.0059   0.0073   0.0214   0.0031   0.0092   0.0083   0.00   15.5
2019/03/11 18:49:29.000   27.894636915  -82.373362773   -20.8651   1   5   0.0059   0.0073   0.0215   0.0031   0.0092   0.0083   0.00   15.2
2019/03/11 18:49:30.000   27.894636909  -82.373362807   -20.8808   1   5   0.0059   0.0073   0.0215   0.0031   0.0092   0.0083   0.00   15.0
2019/03/11 18:49:31.000   27.894636900  -82.373362791   -20.8819   1   7   0.0058   0.0049   0.0145   0.0018   0.0009   0.0069   0.00   10.5
2019/03/11 18:49:32.000   27.894636897  -82.373362788   -20.8870   1   7   0.0058   0.0049   0.0145   0.0018   0.0009   0.0069   0.00   10.2
2019/03/11 18:49:33.000   27.894636908  -82.373362797   -20.8942   1   7   0.0058   0.0049   0.0145   0.0018   0.0009   0.0069   0.00    9.9
2019/03/11 18:49:34.000   27.894636880  -82.373362812   -20.8885   1   7   0.0058   0.0049   0.0145   0.0018   0.0009   0.0069   0.00    9.7
2019/03/11 18:49:35.000   27.894636884  -82.373362798   -20.8864   1   7   0.0058   0.0049   0.0145   0.0018   0.0009   0.0069   0.00    9.4
2019/03/11 18:49:36.000   27.894636885  -82.373362795   -20.8859   1   7   0.0058   0.0049   0.0145   0.0018   0.0009   0.0069   0.00    9.2
2019/03/11 18:49:37.000   27.894636894  -82.373362795   -20.8944   1   7   0.0058   0.0049   0.0145   0.0018   0.0009   0.0069   0.00    8.9
2019/03/11 18:49:38.000   27.894636888  -82.373362794   -20.8875   1   7   0.0058   0.0049   0.0145   0.0018   0.0010   0.0069   0.00    8.6
2019/03/11 18:49:39.000   27.894636851  -82.373362807   -20.8976   1   7   0.0058   0.0049   0.0145   0.0018   0.0010   0.0069   0.00    8.4
2019/03/11 18:49:40.000   27.894636878  -82.373362796   -20.8927   1   7   0.0058   0.0049   0.0145   0.0018   0.0010   0.0069   0.00    8.1
2019/03/11 18:49:41.000   27.894636891  -82.373362794   -20.8932   1   7   0.0058   0.0049   0.0146   0.0018   0.0010   0.0069   0.00    7.8
2019/03/11 18:49:42.000   27.894636887  -82.373362800   -20.8937   1   7   0.0058   0.0049   0.0146   0.0018   0.0010   0.0069   0.00    7.6
2019/03/11 18:49:43.000   27.894636885  -82.373362813   -20.8894   1   7   0.0058   0.0049   0.0146   0.0018   0.0010   0.0069   0.00    7.3
2019/03/11 18:49:44.000   27.894636891  -82.373362816   -20.8938   1   7   0.0058   0.0049   0.0146   0.0018   0.0010   0.0069   0.00    7.0
2019/03/11 18:49:45.000   27.894636867  -82.373362818   -20.8970   1   7   0.0058   0.0049   0.0146   0.0018   0.0010   0.0069   0.00    6.7
2019/03/11 18:49:46.000   27.894636891  -82.373362810   -20.8921   1   7   0.0058   0.0049   0.0146   0.0018   0.0010   0.0069   0.00    6.5
2019/03/11 18:49:47.000   27.894636908  -82.373362799   -20.8860   1   7   0.0058   0.0049   0.0146   0.0018   0.0010   0.0069   0.00    6.2
2019/03/11 18:49:48.000   27.894636891  -82.373362812   -20.8996   1   7   0.0058   0.0049   0.0146   0.0018   0.0010   0.0069   0.00    5.9
2019/03/11 18:49:49.000   27.894636912  -82.373362818   -20.8853   1   7   0.0058   0.0049   0.0146   0.0018   0.0010   0.0069   0.00    5.6
2019/03/11 18:49:50.000   27.894636903  -82.373362827   -20.8879   1   7   0.0058   0.0049   0.0146   0.0018   0.0010   0.0070   0.00    5.3
2019/03/11 18:49:51.000   27.894636894  -82.373362785   -20.8963   1   7   0.0058   0.0049   0.0146   0.0018   0.0010   0.0070   0.00    5.0
2019/03/11 18:49:52.000   27.894636885  -82.373362805   -20.8981   1   7   0.0058   0.0049   0.0146   0.0018   0.0010   0.0070   0.00    4.8
2019/03/11 18:49:53.000   27.894636909  -82.373362820   -20.8899   1   7   0.0058   0.0049   0.0146   0.0018   0.0010   0.0070   0.00    4.5
2019/03/11 18:49:54.000   27.894636911  -82.373362808   -20.8938   1   7   0.0058   0.0049   0.0146   0.0018   0.0010   0.0070   0.00    4.2
2019/03/11 18:49:55.000   27.894636879  -82.373362822   -20.9002   1   7   0.0058   0.0049   0.0146   0.0018   0.0010   0.0070   0.00    3.9
2019/03/11 18:49:56.000   27.894636964  -82.373362963   -20.8939   1   7   0.0058   0.0049   0.0146   0.0017   0.0010   0.0070   0.00   63.1
2019/03/11 18:49:57.000   27.894636982  -82.373362990   -20.8909   1   7   0.0058   0.0050   0.0146   0.0017   0.0010   0.0070   0.00   63.2
2019/03/11 18:49:58.000   27.894636999  -82.373362987   -20.8946   1   7   0.0058   0.0050   0.0146   0.0017   0.0010   0.0070   0.00   63.3
2019/03/11 18:49:59.000   27.894637009  -82.373363025   -20.8941   1   7   0.0058   0.0050   0.0146   0.0016   0.0010   0.0070   0.00   63.5
2019/03/11 18:50:00.000   27.894636997  -82.373363028   -20.8963   1   7   0.0058   0.0050   0.0146   0.0016   0.0011   0.0070   0.00   63.6
2019/03/11 18:50:01.000   27.894637032  -82.373363048   -20.8975   1   7   0.0058   0.0050   0.0146   0.0016   0.0011   0.0070   0.00   63.7
2019/03/11 18:50:02.000   27.894637054  -82.373363065   -20.8908   1   7   0.0059   0.0050   0.0146   0.0015   0.0011   0.0070   0.00   63.9
2019/03/11 18:50:03.000   27.894636999  -82.373362986   -20.8800   1   7   0.0059   0.0051   0.0146   0.0015   0.0011   0.0070   0.00   64.0
2019/03/11 18:50:04.000   27.894637011  -82.373362991   -20.8864   1   7   0.0059   0.0051   0.0146   0.0014   0.0011   0.0070   0.00   64.1
2019/03/11 18:50:05.000   27.894636904  -82.373362689   -20.8734   2   7   0.0041   0.0035   0.0103   0.0011   0.0008   0.0049   0.00    3.3
2019/03/11 18:50:06.000   27.894636941  -82.373362732   -20.8599   2   7   0.0042   0.0036   0.0103   0.0010   0.0008   0.0049   0.00    3.0
2019/03/11 18:50:07.000   27.894637040  -82.373362879   -20.8607   1   7   0.0060   0.0058   0.0146  -0.0014   0.0015   0.0070   0.00   64.2
2019/03/11 18:50:08.000   27.894636884  -82.373362807   -20.8899   1   6   0.0059   0.0052   0.0146   0.0011   0.0012   0.0070   0.00   61.4
2019/03/11 18:50:09.000   27.894636927  -82.373362855   -20.8965   1   6   0.0059   0.0052   0.0146   0.0011   0.0012   0.0070   0.00   61.9
2019/03/11 18:50:10.000   27.894636907  -82.373362841   -20.9016   1   6   0.0059   0.0052   0.0146   0.0011   0.0012   0.0070   0.00   62.1
2019/03/11 18:50:11.000   27.894636917  -82.373362820   -20.8933   1   6   0.0059   0.0052   0.0146   0.0011   0.0012   0.0070   0.00   62.1
2019/03/11 18:50:12.000   27.894636931  -82.373362819   -20.8923   1   6   0.0059   0.0052   0.0146   0.0011   0.0012   0.0070   0.00   62.3
2019/03/11 18:50:13.000   27.894636907  -82.373362832   -20.8927   1   6   0.0059   0.0052   0.0146   0.0011   0.0012   0.0070   0.00   62.4
2019/03/11 18:50:14.000   27.894636934  -82.373362817   -20.8848   1   7   0.0058   0.0049   0.0146   0.0018   0.0010   0.0070   0.00   58.9
2019/03/11 18:50:15.000   27.894636941  -82.373362806   -20.8868   1   7   0.0058   0.0049   0.0146   0.0018   0.0010   0.0070   0.00   59.0
2019/03/11 18:50:16.000   27.894636928  -82.373362827   -20.8933   1   7   0.0058   0.0049   0.0146   0.0018   0.0010   0.0070   0.00   59.0
2019/03/11 18:50:17.000   27.894636945  -82.373362796   -20.8862   1   7   0.0058   0.0049   0.0146   0.0018   0.0010   0.0070   0.00   59.1
2019/03/11 18:50:18.000   27.894636943  -82.373362812   -20.8834   1   7   0.0058   0.0049   0.0146   0.0018   0.0010   0.0070   0.00   59.2
2019/03/11 18:50:19.000   27.894636934  -82.373362844   -20.8905   1   7   0.0058   0.0049   0.0147   0.0018   0.0010   0.0070   0.00   59.4
2019/03/11 18:50:20.000   27.894636915  -82.373362830   -20.8915   1   7   0.0058   0.0049   0.0147   0.0018   0.0010   0.0070   0.00   59.5
2019/03/11 18:50:21.000   27.894636906  -82.373362824   -20.8946   1   7   0.0058   0.0049   0.0147   0.0018   0.0010   0.0070   0.00   59.6
2019/03/11 18:50:22.000   27.894636825  -82.373362826   -20.9049   1   7   0.0042   0.0034   0.0104   0.0013   0.0007   0.0051   0.00    3.8
2019/03/11 18:50:23.000   27.894636838  -82.373362830   -20.9028   1   7   0.0042   0.0034   0.0104   0.0013   0.0007   0.0051   0.00    3.9
2019/03/11 18:50:24.000   27.894636806  -82.373362825   -20.9107   1   7   0.0042   0.0034   0.0104   0.0013   0.0007   0.0051   0.00    3.9
2019/03/11 18:50:25.000   27.894636809  -82.373362821   -20.9112   1   7   0.0042   0.0034   0.0104   0.0013   0.0007   0.0051   0.00    4.0
2019/03/11 18:50:26.000   27.894636811  -82.373362805   -20.9101   1   7   0.0042   0.0034   0.0104   0.0013   0.0007   0.0051   0.00    4.1
2019/03/11 18:50:27.000   27.894636794  -82.373362832   -20.9076   1   7   0.0042   0.0034   0.0104   0.0013   0.0007   0.0051   0.00    4.2
2019/03/11 18:50:28.000   27.894636789  -82.373362837   -20.9106   1   7   0.0042   0.0034   0.0104   0.0013   0.0007   0.0051   0.00    4.2
2019/03/11 18:50:29.000   27.894636827  -82.373362801   -20.9070   1   7   0.0042   0.0034   0.0104   0.0013   0.0007   0.0051   0.00    4.3
2019/03/11 18:50:30.000   27.894636830  -82.373362803   -20.9094   1   7   0.0042   0.0034   0.0104   0.0013   0.0007   0.0051   0.00    4.4
2019/03/11 18:50:31.000   27.894636844  -82.373362798   -20.9020   1   7   0.0042   0.0034   0.0104   0.0013   0.0007   0.0051   0.00    4.5
2019/03/11 18:50:32.000   27.894636817  -82.373362815   -20.9063   1   7   0.0042   0.0034   0.0104   0.0013   0.0007   0.0051   0.00    4.6
2019/03/11 18:50:33.000   27.894636843  -82.373362815   -20.9064   1   7   0.0042   0.0034   0.0104   0.0013   0.0007   0.0051   0.00    4.6
2019/03/11 18:50:34.000   27.894636817  -82.373362807   -20.9087   1   7   0.0042   0.0034   0.0104   0.0013   0.0007   0.0051   0.00    4.7
2019/03/11 18:50:35.000   27.894636806  -82.373362804   -20.9126   1   7   0.0042   0.0034   0.0104   0.0013   0.0007   0.0051   0.00    4.8
2019/03/11 18:50:36.000   27.894636825  -82.373362841   -20.9060   1   7   0.0042   0.0034   0.0104   0.0013   0.0007   0.0051   0.00    4.9
2019/03/11 18:50:37.000   27.894636816  -82.373362826   -20.9033   1   7   0.0042   0.0034   0.0104   0.0013   0.0007   0.0051   0.00    4.9
2019/03/11 18:50:38.000   27.894636796  -82.373362831   -20.9150   1   7   0.0042   0.0034   0.0104   0.0013   0.0007   0.0051   0.00    5.0
2019/03/11 18:50:39.000   27.894636787  -82.373362822   -20.9137   1   7   0.0042   0.0034   0.0104   0.0013   0.0007   0.0051   0.00    5.1
2019/03/11 18:50:40.000   27.894636810  -82.373362809   -20.9105   1   7   0.0042   0.0034   0.0104   0.0013   0.0007   0.0051   0.00    5.2
2019/03/11 18:50:41.000   27.894636805  -82.373362814   -20.9154   1   7   0.0042   0.0034   0.0104   0.0013   0.0007   0.0051   0.00    5.3
2019/03/11 18:50:42.000   27.894636899  -82.373362830   -20.8995   1   7   0.0042   0.0034   0.0104   0.0013   0.0007   0.0050   0.00    9.1
2019/03/11 18:50:43.000   27.894636901  -82.373362849   -20.8996   1   7   0.0042   0.0034   0.0104   0.0013   0.0007   0.0050   0.00   11.9
2019/03/11 18:50:44.000   27.894636883  -82.373362824   -20.9080   1   7   0.0042   0.0034   0.0104   0.0013   0.0007   0.0050   0.00   14.5
2019/03/11 18:50:45.000   27.894636909  -82.373362818   -20.8981   1   7   0.0042   0.0034   0.0104   0.0013   0.0007   0.0050   0.00   14.8
2019/03/11 18:50:46.000   27.894636894  -82.373362827   -20.9005   1   7   0.0042   0.0034   0.0104   0.0013   0.0007   0.0050   0.00   15.1
2019/03/11 18:50:47.000   27.894636907  -82.373362828   -20.8964   1   7   0.0042   0.0034   0.0104   0.0013   0.0007   0.0050   0.00   15.4
2019/03/11 18:50:48.000   27.894636885  -82.373362847   -20.9020   1   7   0.0042   0.0034   0.0104   0.0013   0.0007   0.0050   0.00   15.6
2019/03/11 18:50:49.000   27.894636876  -82.373362840   -20.9037   1   7   0.0042   0.0034   0.0104   0.0013   0.0007   0.0050   0.00   15.9
2019/03/11 18:50:50.000   27.894636898  -82.373362827   -20.8992   1   7   0.0042   0.0034   0.0104   0.0013   0.0007   0.0050   0.00   16.2
2019/03/11 18:50:51.000   27.894636867  -82.373362827   -20.9138   1   7   0.0042   0.0034   0.0104   0.0013   0.0007   0.0051   0.00   16.4
2019/03/11 18:50:52.000   27.894636876  -82.373362832   -20.9009   1   7   0.0042   0.0034   0.0104   0.0013   0.0007   0.0051   0.00   16.6
2019/03/11 18:50:53.000   27.894636891  -82.373362859   -20.9038   1   7   0.0042   0.0034   0.0104   0.0013   0.0007   0.0051   0.00   16.8
2019/03/11 18:50:54.000   27.894636875  -82.373362816   -20.9093   1   7   0.0042   0.0034   0.0104   0.0013   0.0007   0.0051   0.00   17.0
2019/03/11 18:50:55.000   27.894636912  -82.373362829   -20.8973   1   7   0.0042   0.0034   0.0104   0.0013   0.0007   0.0051   0.00   17.2
2019/03/11 18:50:56.000   27.894636866  -82.373362824   -20.9040   1   7   0.0042   0.0034   0.0104   0.0013   0.0007   0.0051   0.00   17.4
2019/03/11 18:50:57.000   27.894636897  -82.373362833   -20.8957   1   7   0.0042   0.0034   0.0104   0.0013   0.0007   0.0051   0.00   17.6
2019/03/11 18:50:58.000   27.894636889  -82.373362845   -20.9027   1   7   0.0042   0.0034   0.0104   0.0013   0.0007   0.0051   0.00   17.8
2019/03/11 18:50:59.000   27.894636895  -82.373362821   -20.9036   1   7   0.0042   0.0034   0.0104   0.0013   0.0007   0.0051   0.00   17.9
2019/03/11 18:51:00.000   27.894636905  -82.373362823   -20.9035   1   7   0.0042   0.0034   0.0104   0.0013   0.0007   0.0051   0.00   18.0
2019/03/11 18:51:01.000   27.894636883  -82.373362820   -20.9024   1   7   0.0042   0.0034   0.0104   0.0013   0.0007   0.0051   0.00   18.1
2019/03/11 18:51:02.000   27.894636876  -82.373362841   -20.9003   1   7   0.0042   0.0034   0.0104   0.0013   0.0007   0.0051   0.00   18.3
2019/03/11 18:51:03.000   27.894636887  -82.373362827   -20.8971   1   7   0.0042   0.0034   0.0104   0.0013   0.0007   0.0051   0.00   18.4
2019/03/11 18:51:04.000   27.894636884  -82.373362827   -20.9032   1   7   0.0042   0.0034   0.0104   0.0013   0.0007   0.0051   0.00   18.6
2019/03/11 18:51:05.000   27.894636898  -82.373362818   -20.8943   1   7   0.0042   0.0034   0.0105   0.0013   0.0007   0.0051   0.00   18.8
2019/03/11 18:51:06.000   27.894636926  -82.373362820   -20.8922   1   7   0.0042   0.0034   0.0105   0.0013   0.0007   0.0051   0.00   18.8
2019/03/11 18:51:07.000   27.894636908  -82.373362816   -20.8965   1   7   0.0042   0.0034   0.0105   0.0013   0.0007   0.0051   0.00   19.0
2019/03/11 18:51:08.000   27.894636888  -82.373362819   -20.8995   1   7   0.0042   0.0034   0.0105   0.0013   0.0007   0.0051   0.00   19.2
2019/03/11 18:51:09.000   27.894636892  -82.373362802   -20.9020   1   7   0.0042   0.0034   0.0105   0.0013   0.0007   0.0051   0.00   19.3
2019/03/11 18:51:10.000   27.894636879  -82.373362820   -20.9009   1   7   0.0042   0.0034   0.0105   0.0013   0.0007   0.0051   0.00   19.4
2019/03/11 18:51:11.000   27.894636904  -82.373362820   -20.8902   1   7   0.0042   0.0034   0.0105   0.0013   0.0007   0.0051   0.00   19.6
2019/03/11 18:51:12.000   27.894636879  -82.373362829   -20.8936   1   7   0.0042   0.0034   0.0105   0.0013   0.0007   0.0051   0.00   19.7
2019/03/11 18:51:13.000   27.894636865  -82.373362801   -20.9078   1   7   0.0042   0.0034   0.0105   0.0013   0.0007   0.0051   0.00   19.8
2019/03/11 18:51:14.000   27.894636896  -82.373362814   -20.8970   1   7   0.0042   0.0034   0.0105   0.0012   0.0007   0.0051   0.00   20.0
2019/03/11 18:51:15.000   27.894636874  -82.373362810   -20.9011   1   7   0.0042   0.0034   0.0105   0.0012   0.0007   0.0051   0.00   20.1
2019/03/11 18:51:16.000   27.894636910  -82.373362801   -20.8942   1   7   0.0042   0.0034   0.0105   0.0012   0.0007   0.0051   0.00   20.3
2019/03/11 18:51:17.000   27.894636907  -82.373362801   -20.8954   1   7   0.0042   0.0034   0.0105   0.0012   0.0007   0.0051   0.00   20.4
2019/03/11 18:51:18.000   27.894636866  -82.373362806   -20.8989   1   7   0.0042   0.0034   0.0105   0.0012   0.0007   0.0051   0.00   20.5
2019/03/11 18:51:19.000   27.894636859  -82.373362802   -20.9077   1   7   0.0042   0.0034   0.0105   0.0012   0.0007   0.0051   0.00   20.6
2019/03/11 18:51:20.000   27.894636875  -82.373362799   -20.9015   1   7   0.0042   0.0034   0.0105   0.0012   0.0007   0.0051   0.00   20.7
2019/03/11 18:51:21.000   27.894636851  -82.373362802   -20.9107   1   7   0.0042   0.0034   0.0105   0.0012   0.0007   0.0051   0.00   20.8
2019/03/11 18:51:22.000   27.894636896  -82.373362812   -20.9010   1   7   0.0042   0.0034   0.0105   0.0012   0.0007   0.0051   0.00   21.0
2019/03/11 18:51:23.000   27.894636865  -82.373362800   -20.9040   1   7   0.0042   0.0034   0.0105   0.0012   0.0007   0.0051   0.00   21.2
2019/03/11 18:51:24.000   27.894636864  -82.373362804   -20.9003   1   7   0.0042   0.0034   0.0105   0.0012   0.0007   0.0051   0.00   21.3
2019/03/11 18:51:25.000   27.894636859  -82.373362799   -20.9002   1   7   0.0042   0.0034   0.0105   0.0012   0.0007   0.0051   0.00   21.5
2019/03/11 18:51:26.000   27.894636889  -82.373362800   -20.8962   1   7   0.0042   0.0034   0.0105   0.0012   0.0007   0.0051   0.00   21.6
2019/03/11 18:51:27.000   27.894636878  -82.373362788   -20.8992   1   7   0.0042   0.0034   0.0105   0.0012   0.0007   0.0051   0.00   21.7
2019/03/11 18:51:28.000   27.894636852  -82.373362811   -20.9036   1   7   0.0042   0.0034   0.0105   0.0012   0.0007   0.0051   0.00   21.8
2019/03/11 18:51:29.000   27.894636885  -82.373362790   -20.8987   1   7   0.0042   0.0034   0.0105   0.0012   0.0008   0.0051   0.00   21.9
2019/03/11 18:51:30.000   27.894636872  -82.373362808   -20.8966   1   7   0.0042   0.0034   0.0105   0.0012   0.0008   0.0051   0.00   22.0
2019/03/11 18:51:31.000   27.894636878  -82.373362794   -20.9023   1   7   0.0042   0.0034   0.0105   0.0012   0.0008   0.0051   0.00   22.2
2019/03/11 18:51:32.000   27.894636853  -82.373362801   -20.9000   1   7   0.0042   0.0034   0.0105   0.0012   0.0008   0.0051   0.00   22.3
2019/03/11 18:51:33.000   27.894636881  -82.373362796   -20.8958   1   7   0.0042   0.0034   0.0105   0.0012   0.0008   0.0051   0.00   22.4
2019/03/11 18:51:34.000   27.894636856  -82.373362815   -20.9019   1   7   0.0042   0.0034   0.0105   0.0012   0.0008   0.0051   0.00   22.5
2019/03/11 18:51:35.000   27.894636853  -82.373362811   -20.9110   1   7   0.0042   0.0034   0.0105   0.0012   0.0008   0.0052   0.00   22.6
2019/03/11 18:51:36.000   27.894636866  -82.373362804   -20.8995   1   7   0.0042   0.0034   0.0105   0.0012   0.0008   0.0052   0.00   22.8
2019/03/11 18:51:37.000   27.894636848  -82.373362814   -20.9078   1   7   0.0042   0.0034   0.0105   0.0012   0.0008   0.0052   0.00   22.9
2019/03/11 18:51:38.000   27.894636848  -82.373362802   -20.9028   1   7   0.0042   0.0034   0.0105   0.0012   0.0008   0.0052   0.00   23.1
2019/03/11 18:51:39.000   27.894636863  -82.373362828   -20.8943   1   7   0.0042   0.0034   0.0105   0.0012   0.0008   0.0052   0.00   23.2
2019/03/11 18:51:40.000   27.894636841  -82.373362824   -20.9069   1   7   0.0042   0.0034   0.0105   0.0012   0.0008   0.0052   0.00   23.3
2019/03/11 18:51:41.000   27.894636854  -82.373362808   -20.9033   1   7   0.0042   0.0034   0.0105   0.0012   0.0008   0.0052   0.00   23.5
2019/03/11 18:51:42.000   27.894636831  -82.373362809   -20.9068   1   7   0.0042   0.0034   0.0105   0.0012   0.0008   0.0052   0.00   23.6
2019/03/11 18:51:43.000   27.894636867  -82.373362801   -20.8975   1   7   0.0042   0.0034   0.0105   0.0012   0.0008   0.0052   0.00   23.7
2019/03/11 18:51:44.000   27.894636860  -82.373362799   -20.9051   1   7   0.0042   0.0034   0.0105   0.0012   0.0008   0.0052   0.00   23.9
2019/03/11 18:51:45.000   27.894636845  -82.373362805   -20.9003   1   7   0.0042   0.0034   0.0105   0.0012   0.0008   0.0052   0.00   24.0
2019/03/11 18:51:46.000   27.894636851  -82.373362806   -20.9078   1   7   0.0042   0.0034   0.0105   0.0012   0.0008   0.0052   0.00   24.1
2019/03/11 18:51:47.000   27.894636859  -82.373362808   -20.8970   1   7   0.0042   0.0034   0.0105   0.0012   0.0008   0.0052   0.00   24.3
2019/03/11 18:51:48.000   27.894636867  -82.373362812   -20.8993   1   7   0.0042   0.0034   0.0105   0.0012   0.0008   0.0052   0.00   24.4
2019/03/11 18:51:49.000   27.894636852  -82.373362812   -20.9088   1   7   0.0042   0.0034   0.0105   0.0012   0.0008   0.0052   0.00   24.4
2019/03/11 18:51:50.000   27.894636827  -82.373362815   -20.9062   1   7   0.0042   0.0034   0.0105   0.0012   0.0008   0.0052   0.00   24.5
2019/03/11 18:51:51.000   27.894636840  -82.373362811   -20.9092   1   7   0.0042   0.0034   0.0105   0.0012   0.0008   0.0052   0.00   24.5
2019/03/11 18:51:52.000   27.894636875  -82.373362823   -20.8986   1   7   0.0042   0.0034   0.0105   0.0012   0.0008   0.0052   0.00   24.6
2019/03/11 18:51:53.000   27.894636852  -82.373362803   -20.9039   1   7   0.0042   0.0034   0.0105   0.0012   0.0008   0.0052   0.00   24.7
2019/03/11 18:51:54.000   27.894636843  -82.373362819   -20.9054   1   7   0.0042   0.0034   0.0106   0.0012   0.0008   0.0052   0.00   24.8
2019/03/11 18:51:55.000   27.894636855  -82.373362793   -20.9043   1   7   0.0043   0.0034   0.0106   0.0012   0.0008   0.0052   0.00   24.9
2019/03/11 18:51:56.000   27.894636889  -82.373362791   -20.9039   1   7   0.0043   0.0034   0.0106   0.0012   0.0008   0.0052   0.00   25.0
2019/03/11 18:51:57.000   27.894636868  -82.373362810   -20.9043   1   7   0.0043   0.0034   0.0106   0.0012   0.0008   0.0052   0.00   25.2
2019/03/11 18:51:58.000   27.894636842  -82.373362797   -20.9058   1   7   0.0043   0.0034   0.0106   0.0012   0.0008   0.0052   0.00   25.3
2019/03/11 18:51:59.000   27.894636864  -82.373362810   -20.9022   1   7   0.0043   0.0034   0.0106   0.0012   0.0008   0.0052   0.00   25.4
2019/03/11 18:52:00.000   27.894636834  -82.373362809   -20.9080   1   7   0.0043   0.0034   0.0106   0.0012   0.0008   0.0052   0.00   25.5
2019/03/11 18:52:01.000   27.894636892  -82.373362842   -20.8907   1   7   0.0043   0.0034   0.0106   0.0012   0.0008   0.0052   0.00   25.7
2019/03/11 18:52:02.000   27.894636862  -82.373362820   -20.9004   1   7   0.0043   0.0034   0.0106   0.0012   0.0008   0.0052   0.00   25.9
2019/03/11 18:52:03.000   27.894636867  -82.373362814   -20.9045   1   7   0.0043   0.0034   0.0106   0.0012   0.0008   0.0052   0.00   26.1
2019/03/11 18:52:04.000   27.894636894  -82.373362844   -20.8962   1   7   0.0043   0.0034   0.0106   0.0012   0.0008   0.0052   0.00   26.3
2019/03/11 18:52:05.000   27.894636858  -82.373362821   -20.9103   1   7   0.0043   0.0034   0.0106   0.0012   0.0008   0.0052   0.00   26.5
2019/03/11 18:52:06.000   27.894636843  -82.373362823   -20.9159   1   7   0.0043   0.0034   0.0106   0.0012   0.0008   0.0052   0.00   26.6
2019/03/11 18:52:07.000   27.894636864  -82.373362787   -20.9102   1   7   0.0043   0.0034   0.0106   0.0012   0.0008   0.0052   0.00   26.8
2019/03/11 18:52:08.000   27.894636840  -82.373362814   -20.9121   1   7   0.0043   0.0034   0.0106   0.0012   0.0008   0.0052   0.00   26.9
2019/03/11 18:52:09.000   27.894636858  -82.373362799   -20.9126   1   7   0.0043   0.0034   0.0106   0.0012   0.0008   0.0052   0.00   27.2
2019/03/11 18:52:10.000   27.894636858  -82.373362825   -20.9105   1   7   0.0043   0.0034   0.0106   0.0012   0.0008   0.0052   0.00   27.3
2019/03/11 18:52:11.000   27.894636853  -82.373362813   -20.9105   1   7   0.0043   0.0034   0.0106   0.0012   0.0008   0.0052   0.00   27.5
2019/03/11 18:52:12.000   27.894636851  -82.373362825   -20.9083   1   7   0.0043   0.0034   0.0106   0.0012   0.0008   0.0052   0.00   27.7
2019/03/11 18:52:13.000   27.894636873  -82.373362817   -20.8989   1   7   0.0043   0.0034   0.0106   0.0012   0.0008   0.0052   0.00   27.8
2019/03/11 18:52:14.000   27.894636852  -82.373362798   -20.9071   1   7   0.0043   0.0034   0.0106   0.0012   0.0008   0.0052   0.00   28.0
2019/03/11 18:52:15.000   27.894636880  -82.373362805   -20.9084   1   7   0.0043   0.0034   0.0106   0.0012   0.0008   0.0052   0.00   28.2
2019/03/11 18:52:16.000   27.894636865  -82.373362815   -20.9066   1   7   0.0043   0.0034   0.0106   0.0012   0.0008   0.0052   0.00   28.5
2019/03/11 18:52:17.000   27.894636874  -82.373362800   -20.9138   1   7   0.0043   0.0034   0.0106   0.0012   0.0008   0.0052   0.00   28.6
2019/03/11 18:52:18.000   27.894636880  -82.373362817   -20.9103   1   7   0.0043   0.0034   0.0106   0.0012   0.0008   0.0053   0.00   28.7
2019/03/11 18:52:19.000   27.894636893  -82.373362796   -20.9042   1   7   0.0043   0.0034   0.0106   0.0012   0.0008   0.0053   0.00   28.8
2019/03/11 18:52:20.000   27.894636874  -82.373362801   -20.9098   1   7   0.0043   0.0034   0.0106   0.0012   0.0008   0.0053   0.00   29.0
2019/03/11 18:52:21.000   27.894636872  -82.373362790   -20.9083   1   7   0.0043   0.0034   0.0106   0.0012   0.0008   0.0053   0.00   29.1
2019/03/11 18:52:22.000   27.894636887  -82.373362795   -20.9009   1   7   0.0043   0.0034   0.0106   0.0012   0.0008   0.0053   0.00   29.2
2019/03/11 18:52:23.000   27.894636872  -82.373362786   -20.9079   1   7   0.0043   0.0034   0.0106   0.0012   0.0008   0.0053   0.00   29.3
2019/03/11 18:52:24.000   27.894636906  -82.373362801   -20.8972   1   7   0.0043   0.0034   0.0106   0.0012   0.0008   0.0053   0.00   29.5
2019/03/11 18:52:25.000   27.894636878  -82.373362786   -20.9078   1   7   0.0043   0.0034   0.0106   0.0012   0.0008   0.0053   0.00   29.6
2019/03/11 18:52:26.000   27.894636888  -82.373362794   -20.8989   1   7   0.0043   0.0034   0.0106   0.0012   0.0008   0.0053   0.00   29.7
2019/03/11 18:52:27.000   27.894636878  -82.373362804   -20.9016   1   7   0.0043   0.0034   0.0106   0.0012   0.0008   0.0053   0.00   29.8
2019/03/11 18:52:28.000   27.894636851  -82.373362788   -20.9089   1   7   0.0043   0.0034   0.0106   0.0012   0.0008   0.0053   0.00   29.8
2019/03/11 18:52:29.000   27.894636903  -82.373362796   -20.9003   1   7   0.0043   0.0034   0.0106   0.0012   0.0008   0.0053   0.00   29.9
2019/03/11 18:52:30.000   27.894636892  -82.373362783   -20.9043   1   7   0.0043   0.0034   0.0106   0.0012   0.0008   0.0053   0.00   30.1
2019/03/11 18:52:31.000   27.894636878  -82.373362791   -20.9028   1   7   0.0043   0.0034   0.0106   0.0012   0.0008   0.0053   0.00   30.2
2019/03/11 18:52:32.000   27.894636895  -82.373362770   -20.9028   1   7   0.0043   0.0034   0.0106   0.0012   0.0008   0.0053   0.00   30.3
2019/03/11 18:52:33.000   27.894636868  -82.373362791   -20.9070   1   7   0.0043   0.0034   0.0106   0.0012   0.0008   0.0053   0.00   30.4
2019/03/11 18:52:34.000   27.894636885  -82.373362807   -20.9000   1   7   0.0043   0.0034   0.0106   0.0012   0.0008   0.0053   0.00   30.5
2019/03/11 18:52:35.000   27.894636862  -82.373362796   -20.8995   1   7   0.0043   0.0034   0.0106   0.0012   0.0008   0.0053   0.00   30.7
2019/03/11 18:52:36.000   27.894636861  -82.373362822   -20.9050   1   7   0.0043   0.0034   0.0106   0.0012   0.0008   0.0053   0.00   30.9
2019/03/11 18:52:37.000   27.894636861  -82.373362807   -20.9095   1   7   0.0043   0.0034   0.0106   0.0012   0.0008   0.0053   0.00   31.0
2019/03/11 18:52:38.000   27.894636855  -82.373362827   -20.9039   1   7   0.0043   0.0034   0.0106   0.0012   0.0008   0.0053   0.00   31.1
2019/03/11 18:52:39.000   27.894636893  -82.373362819   -20.8950   1   7   0.0043   0.0034   0.0106   0.0012   0.0008   0.0053   0.00   31.2
2019/03/11 18:52:40.000   27.894636866  -82.373362836   -20.8996   1   7   0.0043   0.0034   0.0107   0.0012   0.0008   0.0053   0.00   31.3
2019/03/11 18:52:41.000   27.894636891  -82.373362804   -20.9004   1   7   0.0043   0.0034   0.0107   0.0012   0.0008   0.0053   0.00   31.5
2019/03/11 18:52:42.000   27.894636885  -82.373362796   -20.9004   1   7   0.0043   0.0034   0.0107   0.0012   0.0008   0.0053   0.00   31.6
2019/03/11 18:52:43.000   27.894636848  -82.373362826   -20.9045   1   7   0.0043   0.0034   0.0107   0.0012   0.0008   0.0053   0.00   31.8
2019/03/11 18:52:44.000   27.894636845  -82.373362801   -20.9106   1   7   0.0043   0.0034   0.0107   0.0012   0.0008   0.0053   0.00   31.9
2019/03/11 18:52:45.000   27.894636871  -82.373362805   -20.9057   1   7   0.0043   0.0034   0.0107   0.0012   0.0008   0.0053   0.00   32.1
2019/03/11 18:52:46.000   27.894636855  -82.373362815   -20.9091   1   7   0.0043   0.0034   0.0107   0.0012   0.0008   0.0053   0.00   32.2
2019/03/11 18:52:47.000   27.894636860  -82.373362814   -20.9026   1   7   0.0043   0.0034   0.0107   0.0012   0.0008   0.0053   0.00   32.3
2019/03/11 18:52:48.000   27.894636847  -82.373362825   -20.9096   1   7   0.0043   0.0034   0.0107   0.0012   0.0008   0.0053   0.00   32.4
2019/03/11 18:52:49.000   27.894636878  -82.373362805   -20.9001   1   7   0.0043   0.0034   0.0107   0.0012   0.0008   0.0053   0.00   32.5
2019/03/11 18:52:50.000   27.894636876  -82.373362815   -20.8959   1   7   0.0043   0.0034   0.0107   0.0012   0.0008   0.0053   0.00   32.6
2019/03/11 18:52:51.000   27.894636853  -82.373362812   -20.9061   1   7   0.0043   0.0034   0.0107   0.0012   0.0008   0.0053   0.00   32.7
2019/03/11 18:52:52.000   27.894636845  -82.373362804   -20.9128   1   7   0.0043   0.0034   0.0107   0.0012   0.0008   0.0053   0.00   32.8
2019/03/11 18:52:53.000   27.894636854  -82.373362813   -20.9078   1   7   0.0043   0.0034   0.0107   0.0012   0.0008   0.0053   0.00   33.0
2019/03/11 18:52:54.000   27.894636850  -82.373362817   -20.9053   1   7   0.0043   0.0034   0.0107   0.0012   0.0008   0.0053   0.00   33.1
2019/03/11 18:52:55.000   27.894636871  -82.373362804   -20.9048   1   7   0.0043   0.0034   0.0107   0.0012   0.0008   0.0053   0.00   33.2
2019/03/11 18:52:56.000   27.894636856  -82.373362787   -20.9051   1   7   0.0043   0.0034   0.0107   0.0012   0.0008   0.0053   0.00   33.3
2019/03/11 18:52:57.000   27.894636879  -82.373362824   -20.8996   1   7   0.0043   0.0034   0.0107   0.0012   0.0008   0.0053   0.00   33.5
2019/03/11 18:52:58.000   27.894636867  -82.373362799   -20.9052   1   7   0.0043   0.0034   0.0107   0.0012   0.0008   0.0053   0.00   33.7
2019/03/11 18:52:59.000   27.894636862  -82.373362830   -20.8951   1   7   0.0043   0.0034   0.0107   0.0012   0.0008   0.0053   0.00   33.7
2019/03/11 18:53:00.000   27.894636857  -82.373362812   -20.9070   1   7   0.0043   0.0034   0.0107   0.0012   0.0008   0.0054   0.00   33.9
2019/03/11 18:53:01.000   27.894636867  -82.373362821   -20.8974   1   7   0.0043   0.0034   0.0107   0.0012   0.0008   0.0054   0.00   34.0
2019/03/11 18:53:02.000   27.894636864  -82.373362822   -20.9045   1   7   0.0043   0.0034   0.0107   0.0012   0.0008   0.0054   0.00   34.0
2019/03/11 18:53:03.000   27.894636893  -82.373362786   -20.9060   1   7   0.0043   0.0034   0.0107   0.0012   0.0008   0.0054   0.00   34.2
2019/03/11 18:53:04.000   27.894636867  -82.373362797   -20.9036   1   7   0.0043   0.0034   0.0107   0.0012   0.0008   0.0054   0.00   34.2
2019/03/11 18:53:05.000   27.894636850  -82.373362808   -20.9088   1   7   0.0043   0.0034   0.0107   0.0012   0.0008   0.0054   0.00   34.4
2019/03/11 18:53:06.000   27.894636859  -82.373362790   -20.9096   1   7   0.0043   0.0034   0.0107   0.0012   0.0008   0.0054   0.00   34.5
2019/03/11 18:53:07.000   27.894636855  -82.373362788   -20.9127   1   7   0.0043   0.0034   0.0107   0.0012   0.0008   0.0054   0.00   34.6
2019/03/11 18:53:08.000   27.894636856  -82.373362780   -20.9080   1   7   0.0043   0.0034   0.0107   0.0012   0.0008   0.0054   0.00   34.7
2019/03/11 18:53:09.000   27.894636843  -82.373362793   -20.9045   1   7   0.0043   0.0034   0.0107   0.0012   0.0008   0.0054   0.00   34.8
2019/03/11 18:53:10.000   27.894636875  -82.373362805   -20.8987   1   7   0.0043   0.0034   0.0107   0.0012   0.0008   0.0054   0.00   35.0
2019/03/11 18:53:11.000   27.894636868  -82.373362789   -20.9041   1   7   0.0043   0.0034   0.0107   0.0012   0.0008   0.0054   0.00   35.1
2019/03/11 18:53:12.000   27.894636871  -82.373362783   -20.9058   1   7   0.0044   0.0034   0.0107   0.0012   0.0008   0.0054   0.00   35.2
2019/03/11 18:53:13.000   27.894636879  -82.373362821   -20.8985   1   7   0.0044   0.0034   0.0107   0.0012   0.0008   0.0054   0.00   35.4
2019/03/11 18:53:14.000   27.894636860  -82.373362797   -20.9080   1   7   0.0044   0.0034   0.0107   0.0012   0.0008   0.0054   0.00   35.6
2019/03/11 18:53:15.000   27.894636847  -82.373362811   -20.9089   1   7   0.0044   0.0034   0.0107   0.0012   0.0008   0.0054   0.00   35.8
2019/03/11 18:53:16.000   27.894636847  -82.373362778   -20.9152   1   7   0.0044   0.0034   0.0107   0.0012   0.0008   0.0054   0.00   36.0
2019/03/11 18:53:17.000   27.894636855  -82.373362791   -20.8976   1   7   0.0044   0.0034   0.0107   0.0012   0.0008   0.0054   0.00   36.2
2019/03/11 18:53:18.000   27.894636876  -82.373362795   -20.8996   1   7   0.0044   0.0034   0.0107   0.0012   0.0008   0.0054   0.00   36.3
2019/03/11 18:53:19.000   27.894636865  -82.373362781   -20.9037   1   7   0.0044   0.0034   0.0107   0.0012   0.0008   0.0054   0.00   36.5
2019/03/11 18:53:20.000   27.894636865  -82.373362794   -20.9047   1   7   0.0044   0.0034   0.0107   0.0012   0.0008   0.0054   0.00   36.7
2019/03/11 18:53:21.000   27.894636858  -82.373362783   -20.9089   1   7   0.0044   0.0034   0.0107   0.0012   0.0008   0.0054   0.00   36.9
2019/03/11 18:53:22.000   27.894636845  -82.373362782   -20.9070   1   7   0.0044   0.0034   0.0107   0.0012   0.0008   0.0054   0.00   37.2
2019/03/11 18:53:23.000   27.894636847  -82.373362790   -20.9077   1   7   0.0044   0.0034   0.0107   0.0012   0.0008   0.0054   0.00   37.3
2019/03/11 18:53:24.000   27.894636852  -82.373362797   -20.9042   1   7   0.0044   0.0034   0.0107   0.0012   0.0008   0.0054   0.00   37.5
2019/03/11 18:53:25.000   27.894636799  -82.373362799   -20.9136   1   7   0.0044   0.0034   0.0108   0.0012   0.0008   0.0054   0.00   37.6
2019/03/11 18:53:26.000   27.894636847  -82.373362779   -20.9079   1   7   0.0044   0.0034   0.0108   0.0012   0.0008   0.0054   0.00   37.8
2019/03/11 18:53:27.000   27.894636823  -82.373362800   -20.9094   1   7   0.0044   0.0034   0.0108   0.0012   0.0008   0.0054   0.00   38.1
2019/03/11 18:53:28.000   27.894636820  -82.373362796   -20.9147   1   7   0.0044   0.0034   0.0108   0.0012   0.0008   0.0054   0.00   38.3
2019/03/11 18:53:29.000   27.894636824  -82.373362806   -20.9057   1   7   0.0044   0.0034   0.0108   0.0012   0.0008   0.0054   0.00   38.5
2019/03/11 18:53:30.000   27.894636827  -82.373362813   -20.9051   1   7   0.0044   0.0034   0.0108   0.0012   0.0008   0.0054   0.00   38.7
2019/03/11 18:53:31.000   27.894636829  -82.373362778   -20.9115   1   7   0.0044   0.0034   0.0108   0.0012   0.0008   0.0054   0.00   39.0
2019/03/11 18:53:32.000   27.894636827  -82.373362799   -20.9055   1   7   0.0044   0.0034   0.0108   0.0012   0.0008   0.0054   0.00   39.2
2019/03/11 18:53:33.000   27.894636843  -82.373362774   -20.9077   1   7   0.0044   0.0034   0.0108   0.0012   0.0008   0.0054   0.00   39.4
2019/03/11 18:53:34.000   27.894636847  -82.373362773   -20.9102   1   7   0.0044   0.0034   0.0108   0.0012   0.0008   0.0054   0.00   39.6
2019/03/11 18:53:35.000   27.894636852  -82.373362769   -20.9051   1   7   0.0044   0.0034   0.0108   0.0012   0.0008   0.0054   0.00   39.9
2019/03/11 18:53:36.000   27.894636826  -82.373362772   -20.9054   1   7   0.0044   0.0034   0.0108   0.0012   0.0008   0.0054   0.00   40.1
2019/03/11 18:53:37.000   27.894636842  -82.373362780   -20.9046   1   7   0.0044   0.0034   0.0108   0.0012   0.0008   0.0054   0.00   40.3
2019/03/11 18:53:38.000   27.894636832  -82.373362771   -20.9096   1   7   0.0044   0.0034   0.0108   0.0012   0.0008   0.0054   0.00   40.5
2019/03/11 18:53:39.000   27.894636863  -82.373362763   -20.9076   1   7   0.0044   0.0034   0.0108   0.0012   0.0008   0.0054   0.00   40.6
2019/03/11 18:53:40.000   27.894636834  -82.373362747   -20.9152   1   7   0.0044   0.0034   0.0108   0.0012   0.0008   0.0054   0.00   40.8
2019/03/11 18:53:41.000   27.894636849  -82.373362773   -20.9042   1   7   0.0044   0.0034   0.0108   0.0012   0.0008   0.0054   0.00   41.0
2019/03/11 18:53:42.000   27.894636855  -82.373362770   -20.9085   1   7   0.0044   0.0034   0.0108   0.0012   0.0008   0.0055   0.00   41.2
2019/03/11 18:53:43.000   27.894636836  -82.373362766   -20.9132   1   7   0.0044   0.0034   0.0108   0.0012   0.0008   0.0055   0.00   41.3
2019/03/11 18:53:44.000   27.894636845  -82.373362766   -20.9120   1   7   0.0044   0.0034   0.0108   0.0012   0.0008   0.0055   0.00   41.5
2019/03/11 18:53:45.000   27.894636847  -82.373362762   -20.9104   1   7   0.0044   0.0034   0.0108   0.0012   0.0008   0.0055   0.00   41.7
2019/03/11 18:53:46.000   27.894636849  -82.373362755   -20.9076   1   7   0.0044   0.0034   0.0108   0.0012   0.0008   0.0055   0.00   41.9
2019/03/11 18:53:47.000   27.894636835  -82.373362723   -20.9113   1   7   0.0044   0.0034   0.0108   0.0012   0.0008   0.0055   0.00   42.1
2019/03/11 18:53:48.000   27.894636820  -82.373362776   -20.9097   1   7   0.0044   0.0034   0.0108   0.0012   0.0008   0.0055   0.00   42.4
2019/03/11 18:53:49.000   27.894636825  -82.373362773   -20.9069   1   7   0.0044   0.0034   0.0108   0.0012   0.0008   0.0055   0.00   42.6
2019/03/11 18:53:50.000   27.894636844  -82.373362777   -20.9017   1   7   0.0044   0.0034   0.0108   0.0012   0.0008   0.0055   0.00   42.9
2019/03/11 18:53:51.000   27.894636856  -82.373362748   -20.9015   1   7   0.0044   0.0034   0.0108   0.0012   0.0008   0.0055   0.00   43.0
2019/03/11 18:53:52.000   27.894636834  -82.373362765   -20.9036   1   7   0.0044   0.0034   0.0108   0.0012   0.0008   0.0055   0.00   43.1
2019/03/11 18:53:53.000   27.894636851  -82.373362761   -20.9033   1   7   0.0044   0.0034   0.0108   0.0012   0.0008   0.0055   0.00   43.4
2019/03/11 18:53:54.000   27.894636841  -82.373362774   -20.9032   1   7   0.0044   0.0034   0.0108   0.0012   0.0008   0.0055   0.00   43.6
2019/03/11 18:53:55.000   27.894636832  -82.373362735   -20.9105   1   7   0.0044   0.0034   0.0108   0.0012   0.0008   0.0055   0.00   43.7
2019/03/11 18:53:56.000   27.894636828  -82.373362762   -20.9061   1   7   0.0044   0.0034   0.0108   0.0012   0.0008   0.0055   0.00   43.9
2019/03/11 18:53:57.000   27.894636844  -82.373362759   -20.9003   1   7   0.0044   0.0034   0.0108   0.0012   0.0008   0.0055   0.00   44.1
2019/03/11 18:53:58.000   27.894636860  -82.373362728   -20.8975   1   7   0.0044   0.0034   0.0108   0.0012   0.0008   0.0055   0.00   44.3
2019/03/11 18:53:59.000   27.894636844  -82.373362727   -20.9027   1   7   0.0044   0.0034   0.0108   0.0012   0.0008   0.0055   0.00   44.4
2019/03/11 18:54:00.000   27.894636836  -82.373362747   -20.9050   1   7   0.0044   0.0034   0.0108   0.0012   0.0008   0.0055   0.00   44.5
2019/03/11 18:54:01.000   27.894636846  -82.373362734   -20.9012   1   7   0.0044   0.0034   0.0108   0.0012   0.0008   0.0055   0.00   44.6
2019/03/11 18:54:02.000   27.894636838  -82.373362739   -20.9052   1   7   0.0044   0.0034   0.0108   0.0012   0.0008   0.0055   0.00   44.8
2019/03/11 18:54:03.000   27.894636963  -82.373362508   -20.7684   1   7   0.0044   0.0034   0.0108   0.0012   0.0008   0.0055   0.00   45.0
2019/03/11 18:54:04.000   27.894637442  -82.373361272   -19.4283   1   7   0.0044   0.0034   0.0108   0.0012   0.0008   0.0055   0.00   45.2
2019/03/11 18:54:05.000   27.894638604  -82.373361485   -16.9769   1   7   0.0044   0.0034   0.0108   0.0012   0.0008   0.0055   0.00   45.3
2019/03/11 18:54:06.000   27.894626977  -82.373341604   -14.6276   1   7   0.0044   0.0034   0.0108   0.0012   0.0008   0.0055   0.00   45.6
2019/03/11 18:54:07.000   27.894597883  -82.373306958   -12.4775   1   7   0.0044   0.0034   0.0108   0.0012   0.0008   0.0055   0.00   45.7
2019/03/11 18:54:08.000   27.894582119  -82.373279390   -11.4439   1   7   0.0044   0.0034   0.0109   0.0012   0.0008   0.0055   0.00   46.0
2019/03/11 18:54:09.000   27.894579953  -82.373282371   -12.2046   1   7   0.0044   0.0034   0.0109   0.0012   0.0008   0.0055   0.00   46.1
2019/03/11 18:54:10.000   27.894590899  -82.373315057   -13.3510   1   7   0.0044   0.0034   0.0109   0.0012   0.0008   0.0055   0.00   46.3
2019/03/11 18:54:11.000   27.894604790  -82.373359292   -13.2367   1   7   0.0044   0.0034   0.0109   0.0012   0.0008   0.0055   0.00   46.3
2019/03/11 18:54:12.000   27.894619357  -82.373381875   -12.7774   1   7   0.0044   0.0034   0.0109   0.0012   0.0008   0.0055   0.00   46.4
2019/03/11 18:54:13.000   27.894619775  -82.373376358   -12.5058   1   7   0.0044   0.0034   0.0109   0.0012   0.0008   0.0055   0.00   46.6
2019/03/11 18:54:14.000   27.894611920  -82.373358421   -12.9946   1   7   0.0044   0.0034   0.0109   0.0012   0.0008   0.0055   0.00   46.7
2019/03/11 18:54:15.000   27.894611816  -82.373352051   -14.8818   1   7   0.0044   0.0034   0.0109   0.0012   0.0008   0.0055   0.00   46.8
2019/03/11 18:54:16.000   27.894613260  -82.373348368   -16.6834   1   7   0.0044   0.0034   0.0109   0.0012   0.0008   0.0055   0.00   46.9
2019/03/11 18:54:17.000   27.894614788  -82.373349444   -17.8453   1   7   0.0044   0.0034   0.0109   0.0012   0.0008   0.0055   0.00   47.1
2019/03/11 18:54:18.000   27.894615735  -82.373352727   -18.8746   1   7   0.0044   0.0034   0.0109   0.0012   0.0008   0.0055   0.00   47.1
2019/03/11 18:54:19.000   27.894616301  -82.373352804   -19.8844   1   7   0.0044   0.0034   0.0109   0.0012   0.0008   0.0055   0.00   47.3
2019/03/11 18:54:20.000   27.894616067  -82.373353806   -20.5508   1   7   0.0044   0.0034   0.0109   0.0012   0.0008   0.0055   0.00   47.4
2019/03/11 18:54:21.000   27.894615189  -82.373354184   -20.7845   1   7   0.0044   0.0034   0.0109   0.0012   0.0008   0.0055   0.00   47.6
2019/03/11 18:54:22.000   27.894614865  -82.373354477   -20.8712   1   7   0.0044   0.0034   0.0109   0.0012   0.0008   0.0055   0.00   47.8
2019/03/11 18:54:23.000   27.894614855  -82.373354450   -20.8771   1   7   0.0044   0.0034   0.0109   0.0012   0.0008   0.0056   0.00   48.0
2019/03/11 18:54:24.000   27.894614832  -82.373354476   -20.8791   1   7   0.0044   0.0034   0.0109   0.0012   0.0008   0.0056   0.00   48.0
2019/03/11 18:54:25.000   27.894614849  -82.373354486   -20.8839   1   7   0.0045   0.0034   0.0109   0.0012   0.0008   0.0056   0.00   48.0
2019/03/11 18:54:26.000   27.894614829  -82.373354509   -20.8819   1   7   0.0045   0.0034   0.0109   0.0012   0.0008   0.0056   0.00   48.0
2019/03/11 18:54:27.000   27.894614791  -82.373354553   -20.8893   1   7   0.0045   0.0034   0.0109   0.0012   0.0008   0.0056   0.00   48.2
2019/03/11 18:54:28.000   27.894614819  -82.373354557   -20.8782   1   7   0.0045   0.0034   0.0109   0.0012   0.0008   0.0056   0.00   48.2
2019/03/11 18:54:29.000   27.894614842  -82.373354553   -20.8807   1   7   0.0045   0.0034   0.0109   0.0012   0.0008   0.0056   0.00   48.4
2019/03/11 18:54:30.000   27.894614670  -82.373354598   -20.8949   1   7   0.0045   0.0034   0.0109   0.0012   0.0008   0.0056   0.00   48.0
2019/03/11 18:54:31.000   27.894614832  -82.373354572   -20.8707   1   7   0.0045   0.0034   0.0109   0.0012   0.0008   0.0056   0.00   48.0
2019/03/11 18:54:32.000   27.894614818  -82.373354570   -20.8790   1   7   0.0045   0.0034   0.0109   0.0012   0.0008   0.0056   0.00   48.3
2019/03/11 18:54:33.000   27.894614816  -82.373354557   -20.8886   1   7   0.0045   0.0034   0.0109   0.0012   0.0008   0.0056   0.00   48.7
2019/03/11 18:54:34.000   27.894614807  -82.373354572   -20.8850   1   7   0.0045   0.0034   0.0109   0.0012   0.0008   0.0056   0.00   49.0
2019/03/11 18:54:35.000   27.894614802  -82.373354620   -20.8923   1   7   0.0045   0.0034   0.0109   0.0012   0.0008   0.0056   0.00   49.0
2019/03/11 18:54:36.000   27.894614787  -82.373354582   -20.8958   1   7   0.0045   0.0034   0.0109   0.0012   0.0008   0.0056   0.00   49.0
2019/03/11 18:54:37.000   27.894614788  -82.373354569   -20.8964   1   7   0.0045   0.0034   0.0109   0.0012   0.0008   0.0056   0.00   48.9
2019/03/11 18:54:38.000   27.894614794  -82.373354572   -20.8965   1   7   0.0045   0.0034   0.0109   0.0012   0.0008   0.0056   0.00   48.9
2019/03/11 18:54:39.000   27.894614832  -82.373354564   -20.8872   1   7   0.0045   0.0034   0.0109   0.0012   0.0008   0.0056   0.00   49.0
2019/03/11 18:54:40.000   27.894614850  -82.373354508   -20.8808   1   7   0.0045   0.0034   0.0109   0.0012   0.0008   0.0056   0.00   49.2
2019/03/11 18:54:41.000   27.894614803  -82.373354515   -20.8894   1   7   0.0045   0.0034   0.0109   0.0012   0.0008   0.0056   0.00   49.2
2019/03/11 18:54:42.000   27.894614795  -82.373354495   -20.8848   1   7   0.0045   0.0034   0.0109   0.0012   0.0008   0.0056   0.00   49.3
2019/03/11 18:54:43.000   27.894614794  -82.373354493   -20.8871   1   7   0.0045   0.0034   0.0109   0.0012   0.0008   0.0056   0.00   49.4
2019/03/11 18:54:44.000   27.894614802  -82.373354513   -20.8873   1   7   0.0045   0.0034   0.0109   0.0012   0.0008   0.0056   0.00   49.5
2019/03/11 18:54:45.000   27.894614800  -82.373354502   -20.8843   1   7   0.0045   0.0034   0.0109   0.0012   0.0008   0.0056   0.00   49.6
2019/03/11 18:54:46.000   27.894614786  -82.373354481   -20.8916   1   7   0.0045   0.0034   0.0109   0.0012   0.0008   0.0056   0.00   49.7
2019/03/11 18:54:47.000   27.894614836  -82.373354480   -20.8790   1   7   0.0045   0.0034   0.0109   0.0012   0.0008   0.0056   0.00   49.9
2019/03/11 18:54:48.000   27.894614795  -82.373354505   -20.8909   1   7   0.0045   0.0034   0.0109   0.0012   0.0008   0.0056   0.00   50.0
2019/03/11 18:54:49.000   27.894614801  -82.373354487   -20.8891   1   7   0.0045   0.0034   0.0109   0.0012   0.0008   0.0056   0.00   50.0
2019/03/11 18:54:50.000   27.894614797  -82.373354514   -20.8880   1   7   0.0045   0.0034   0.0110   0.0012   0.0008   0.0056   0.00   50.1
2019/03/11 18:54:51.000   27.894614831  -82.373354502   -20.8853   1   7   0.0045   0.0034   0.0110   0.0012   0.0008   0.0056   0.00   50.2
2019/03/11 18:54:52.000   27.894614808  -82.373354516   -20.8881   1   7   0.0045   0.0034   0.0110   0.0012   0.0008   0.0056   0.00   50.2
2019/03/11 18:54:53.000   27.894614832  -82.373353522   -19.8950   1   7   0.0045   0.0034   0.0110   0.0012   0.0008   0.0056   0.00   50.4
2019/03/11 18:54:54.000   27.894615545  -82.373353205   -17.6727   1   7   0.0045   0.0034   0.0110   0.0012   0.0008   0.0056   0.00   50.5
2019/03/11 18:54:55.000   27.894616806  -82.373354568   -15.2545   1   7   0.0045   0.0034   0.0110   0.0012   0.0008   0.0056   0.00   50.5
2019/03/11 18:54:56.000   27.894612440  -82.373347976   -13.0326   1   7   0.0045   0.0034   0.0110   0.0012   0.0008   0.0056   0.00   50.4
2019/03/11 18:54:57.000   27.894585781  -82.373316389   -10.7606   1   7   0.0045   0.0034   0.0110   0.0012   0.0008   0.0056   0.00   50.5
2019/03/11 18:54:58.000   27.894547218  -82.373284424    -8.6757   1   7   0.0045   0.0034   0.0110   0.0012   0.0008   0.0056   0.00   50.6
2019/03/11 18:54:59.000   27.894509182  -82.373268406    -6.8502   1   7   0.0045   0.0034   0.0110   0.0012   0.0008   0.0056   0.00   50.5
2019/03/11 18:55:00.000   27.894486940  -82.373252244    -6.0597   1   7   0.0045   0.0034   0.0110   0.0012   0.0008   0.0056   0.00   50.6
2019/03/11 18:55:01.000   27.894476520  -82.373244047    -6.4873   1   7   0.0045   0.0034   0.0110   0.0012   0.0008   0.0056   0.00   50.7
2019/03/11 18:55:02.000   27.894475472  -82.373242046    -6.6085   1   7   0.0045   0.0034   0.0110   0.0012   0.0008   0.0056   0.00   50.8
2019/03/11 18:55:03.000   27.894476416  -82.373243478    -6.3865   1   7   0.0045   0.0034   0.0110   0.0012   0.0008   0.0057   0.00   50.8
2019/03/11 18:55:04.000   27.894482327  -82.373247242    -4.9756   1   7   0.0045   0.0034   0.0110   0.0012   0.0008   0.0057   0.00   51.1
2019/03/11 18:55:05.000   27.894492839  -82.373249405    -2.4007   1   7   0.0045   0.0034   0.0110   0.0012   0.0008   0.0057   0.00   51.4
2019/03/11 18:55:06.000   27.894504993  -82.373248081     0.4503   1   7   0.0045   0.0034   0.0110   0.0012   0.0008   0.0057   0.00   51.5
2019/03/11 18:55:07.000   27.894517470  -82.373248323     3.3375   1   7   0.0045   0.0034   0.0110   0.0012   0.0008   0.0057   0.00   51.6
2019/03/11 18:55:08.000   27.894529640  -82.373248700     6.2410   1   7   0.0045   0.0034   0.0110   0.0012   0.0008   0.0057   0.00   51.7
2019/03/11 18:55:09.000   27.894541363  -82.373250019     9.1766   1   7   0.0045   0.0034   0.0110   0.0012   0.0008   0.0057   0.00   51.7
2019/03/11 18:55:10.000   27.894554014  -82.373251401    12.1412   1   7   0.0045   0.0034   0.0110   0.0012   0.0008   0.0057   0.00   51.9
2019/03/11 18:55:11.000   27.894567376  -82.373252274    14.9767   1   7   0.0045   0.0034   0.0110   0.0012   0.0008   0.0057   0.00   52.2
2019/03/11 18:55:12.000   27.894580068  -82.373254669    17.8301   1   7   0.0045   0.0034   0.0110   0.0012   0.0008   0.0057   0.00   52.4
2019/03/11 18:55:13.000   27.894591945  -82.373258266    20.6566   1   7   0.0045   0.0034   0.0110   0.0012   0.0008   0.0057   0.00   52.6
2019/03/11 18:55:14.000   27.894605631  -82.373260977    23.4109   1   7   0.0045   0.0034   0.0110   0.0012   0.0008   0.0057   0.00   52.7
2019/03/11 18:55:15.000   27.894621856  -82.373263089    26.2609   1   7   0.0045   0.0034   0.0110   0.0012   0.0008   0.0057   0.00   52.8
2019/03/11 18:55:16.000   27.894637098  -82.373264596    29.2221   1   7   0.0045   0.0034   0.0110   0.0012   0.0008   0.0057   0.00   53.0
2019/03/11 18:55:17.000   27.894651202  -82.373265449    32.1999   1   7   0.0045   0.0034   0.0110   0.0012   0.0008   0.0057   0.00   53.1
2019/03/11 18:55:18.000   27.894663948  -82.373266602    35.1563   1   7   0.0045   0.0034   0.0110   0.0012   0.0008   0.0057   0.00   53.1
2019/03/11 18:55:19.000   27.894676993  -82.373269777    38.0899   1   7   0.0045   0.0034   0.0110   0.0012   0.0008   0.0057   0.00   53.3
2019/03/11 18:55:20.000   27.894690291  -82.373272526    40.9575   1   7   0.0045   0.0034   0.0110   0.0012   0.0008   0.0057   0.00   53.4
2019/03/11 18:55:21.000   27.894703341  -82.373275911    43.7717   1   7   0.0045   0.0034   0.0110   0.0012   0.0008   0.0057   0.00   53.6
2019/03/11 18:55:22.000   27.894715495  -82.373278416    46.4892   1   7   0.0045   0.0034   0.0110   0.0012   0.0008   0.0057   0.00   53.8
2019/03/11 18:55:23.000   27.894726989  -82.373279031    49.0655   1   7   0.0045   0.0034   0.0110   0.0012   0.0008   0.0057   0.00   53.9
2019/03/11 18:55:24.000   27.894740929  -82.373280199    51.6318   1   7   0.0045   0.0034   0.0110   0.0012   0.0008   0.0057   0.00   54.1
2019/03/11 18:55:25.000   27.894755122  -82.373282807    54.3085   1   7   0.0045   0.0034   0.0110   0.0012   0.0008   0.0057   0.00   54.2
2019/03/11 18:55:26.000   27.894769621  -82.373285592    57.1310   1   7   0.0045   0.0034   0.0110   0.0012   0.0008   0.0057   0.00   54.3
2019/03/11 18:55:27.000   27.894783427  -82.373288019    60.0616   1   7   0.0045   0.0034   0.0110   0.0012   0.0008   0.0057   0.00   54.4
2019/03/11 18:55:28.000   27.894797154  -82.373290165    62.9754   1   7   0.0045   0.0034   0.0110   0.0012   0.0008   0.0057   0.00   54.5
2019/03/11 18:55:29.000   27.894811127  -82.373292255    65.8928   1   7   0.0045   0.0034   0.0110   0.0012   0.0008   0.0057   0.00   54.6
2019/03/11 18:55:30.000   27.894825183  -82.373293712    68.8225   1   7   0.0045   0.0034   0.0111   0.0012   0.0008   0.0057   0.00   54.8
2019/03/11 18:55:31.000   27.894839177  -82.373294662    71.7424   1   7   0.0045   0.0034   0.0111   0.0012   0.0008   0.0057   0.00   54.9
2019/03/11 18:55:32.000   27.894853800  -82.373296417    74.6605   1   7   0.0045   0.0034   0.0111   0.0012   0.0008   0.0057   0.00   54.9
2019/03/11 18:55:33.000   27.894867778  -82.373298613    77.6152   1   7   0.0045   0.0034   0.0111   0.0012   0.0008   0.0057   0.00   54.9
2019/03/11 18:55:34.000   27.894881025  -82.373299721    80.5277   1   7   0.0046   0.0034   0.0111   0.0012   0.0008   0.0057   0.00   54.9
2019/03/11 18:55:35.000   27.894894023  -82.373300461    83.3712   1   7   0.0046   0.0034   0.0111   0.0012   0.0008   0.0057   0.00   55.0
2019/03/11 18:55:36.000   27.894907575  -82.373301647    86.1320   1   7   0.0046   0.0034   0.0111   0.0012   0.0008   0.0057   0.00   55.0
2019/03/11 18:55:37.000   27.894921504  -82.373302827    88.8504   1   7   0.0046   0.0034   0.0111   0.0012   0.0008   0.0057   0.00   55.0
2019/03/11 18:55:38.000   27.894934943  -82.373304612    91.5446   1   7   0.0046   0.0034   0.0111   0.0012   0.0008   0.0057   0.00   55.1
2019/03/11 18:55:39.000   27.894948125  -82.373306880    94.2729   1   7   0.0046   0.0034   0.0111   0.0012   0.0008   0.0057   0.00   55.1
2019/03/11 18:55:40.000   27.894962017  -82.373309461    97.0427   1   7   0.0046   0.0034   0.0111   0.0012   0.0008   0.0057   0.00   55.3
2019/03/11 18:55:41.000   27.894966643  -82.373312233    99.0800   1   7   0.0046   0.0034   0.0111   0.0011   0.0008   0.0057   0.00   55.3
2019/03/11 18:55:42.000   27.894943026  -82.373321765    99.6548   1   7   0.0046   0.0034   0.0111   0.0011   0.0008   0.0058   0.00   55.1
2019/03/11 18:55:43.000   27.894896777  -82.373345305    99.8133   1   7   0.0046   0.0034   0.0111   0.0011   0.0008   0.0058   0.00   55.4
2019/03/11 18:55:44.000   27.894841685  -82.373389382    99.7593   1   7   0.0046   0.0034   0.0111   0.0011   0.0008   0.0058   0.00   55.5
2019/03/11 18:55:45.000   27.894780049  -82.373438245    99.8077   1   7   0.0046   0.0034   0.0111   0.0011   0.0008   0.0058   0.00   55.6
2019/03/11 18:55:46.000   27.894717740  -82.373483406    99.9507   1   7   0.0046   0.0034   0.0111   0.0011   0.0008   0.0058   0.00   55.8
2019/03/11 18:55:47.000   27.894653168  -82.373527047   100.0379   1   7   0.0046   0.0034   0.0111   0.0011   0.0008   0.0058   0.00   55.9
2019/03/11 18:55:48.000   27.894586129  -82.373568657   100.0825   1   7   0.0046   0.0034   0.0111   0.0011   0.0008   0.0058   0.00   56.1
2019/03/11 18:55:49.000   27.894517490  -82.373609025   100.1411   1   7   0.0046   0.0034   0.0111   0.0011   0.0008   0.0058   0.00   56.2
2019/03/11 18:55:50.000   27.894448720  -82.373650124   100.1343   1   7   0.0046   0.0034   0.0111   0.0011   0.0008   0.0058   0.00   56.3
2019/03/11 18:55:51.000   27.894379880  -82.373691863   100.1019   1   7   0.0046   0.0034   0.0111   0.0011   0.0008   0.0058   0.00   56.4
2019/03/11 18:55:52.000   27.894311591  -82.373733997   100.1408   1   7   0.0046   0.0034   0.0111   0.0011   0.0008   0.0058   0.00   56.6
2019/03/11 18:55:53.000   27.894242823  -82.373776770   100.2367   1   7   0.0046   0.0034   0.0111   0.0011   0.0008   0.0058   0.00   56.7
2019/03/11 18:55:54.000   27.894172978  -82.373820546   100.3524   1   7   0.0046   0.0034   0.0111   0.0011   0.0008   0.0058   0.00   56.8
2019/03/11 18:55:55.000   27.894103416  -82.373864297   100.4132   1   7   0.0046   0.0034   0.0111   0.0011   0.0008   0.0058   0.00   56.8
2019/03/11 18:55:56.000   27.894034792  -82.373908173   100.3675   1   7   0.0046   0.0034   0.0111   0.0011   0.0008   0.0058   0.00   57.1
2019/03/11 18:55:57.000   27.893965897  -82.373950586   100.3054   1   7   0.0046   0.0034   0.0111   0.0011   0.0008   0.0058   0.00   57.1
2019/03/11 18:55:58.000   27.893896346  -82.373994672   100.2612   1   7   0.0046   0.0034   0.0111   0.0011   0.0008   0.0058   0.00   57.4
2019/03/11 18:55:59.000   27.893827181  -82.374038567   100.1634   1   7   0.0046   0.0034   0.0111   0.0011   0.0008   0.0058   0.00   57.5
2019/03/11 18:56:00.000   27.893766555  -82.374079632   100.2123   1   7   0.0046   0.0034   0.0111   0.0011   0.0008   0.0058   0.00   57.7
2019/03/11 18:56:01.000   27.893736510  -82.374101217   100.2519   1   7   0.0046   0.0034   0.0111   0.0011   0.0008   0.0058   0.00   57.8
2019/03/11 18:56:02.000   27.893738986  -82.374105392   100.3549   1   7   0.0046   0.0034   0.0111   0.0011   0.0008   0.0058   0.00   58.0
2019/03/11 18:56:03.000   27.893766411  -82.374108797   100.5605   1   7   0.0046   0.0034   0.0111   0.0011   0.0008   0.0058   0.00   58.1
2019/03/11 18:56:04.000   27.893804375  -82.374113644   100.5920   1   7   0.0046   0.0034   0.0111   0.0011   0.0008   0.0058   0.00   58.2
2019/03/11 18:56:05.000   27.893860763  -82.374115104   100.5317   1   7   0.0046   0.0034   0.0111   0.0011   0.0008   0.0058   0.00   58.3
